[

    {
        "name": "倉岡西品川家",
        "location": {
            "lat": 35.61188137336042,
            "lng": 139.7255540344704
        }
    },
    {
        "name": "マギ 下北沢開発",
        "location": {
            "lat": 35.66521752219795,
            "lng": 139.66498751546231
        }
    },
    {
        "name": "マギ 猫米",
        "location": {
            "lat": 35.66742427555168,
            "lng": 139.6659865879075
        }
    },
    {
        "name": "マギ 本社（浅井さんセカンドハウス）",
        "location": {
            "lat": 35.04369612042651,
            "lng": 139.8332695477962
        }
    },
    {
        "name": "産業遺産情報センター",
        "location": {
            "lat": 35.69975642068451,
            "lng": 139.71542093037817
        }
    },
    {
        "name": "産業遺産国民会議 中野事務所",
        "location": {
            "lat": 35.706544972205975,
            "lng": 139.66935272322877
        }
    },
    {
        "name": "大井町駅 東口",
        "location": {
            "lat": 35.60750055074128,
            "lng": 139.73512738943293
        }
    },
    {
        "name": "測定観測用pin",
        "location": {
            "lat": 35.53326581423899,
            "lng": 139.65637783148912
        }
    },
    {
        "name": "測定観測用pin2",
        "location": {
            "lat": 35.53266559057619,
            "lng": 139.65842057321805
        }
    }
]