[
  {
    "name": "六本木駅",
    "id": "1",
    "location": {
      "lat": 35.663236223821,
      "lng": 139.732211964914
    }
  },
  {
    "name": "善福寺",
    "id": "2",
    "location": {
      "lat": 35.6536744282132,
      "lng": 139.732914903369
    }
  },
  {
    "name": "有栖川宮記念公園",
    "id": "3",
    "location": {
      "lat": 35.6520358406887,
      "lng": 139.725770664266
    }
  },
  {
    "name": "六本木ヒルズレジデンスＡ",
    "id": "4",
    "location": {
      "lat": 35.658936892032855,
      "lng": 139.728597247128
    }
  },
  {
    "name": "六本木ヒルズレジデンスB",
    "id": "5",
    "location": {
      "lat": 35.6589034979103,
      "lng": 139.72927529331002
    }
  },
  {
    "name": "六本木ヒルズレジデンスC",
    "id": "6",
    "location": {
      "lat": 35.658925633427,
      "lng": 139.730175230009
    }
  },
  {
    "name": "六本木ヒルズレジデンスD",
    "id": "7",
    "location": {
      "lat": 35.65896618346157,
      "lng": 139.73129586634255
    }
  },
  {
    "name": "ジョウモン 六本木店",
    "id": "8",
    "location": {
      "lat": 35.66142967224535,
      "lng": 139.73307776758324
    }
  },
  {
    "name": "国立新美術館",
    "id": "9",
    "location": {
      "lat": 35.66532386359011,
      "lng": 139.72637284931133
    }
  },
  {
    "name": "東京タワー",
    "id": "10",
    "location": {
      "lat": 35.65864561380712,
      "lng": 139.74536729232466
    }
  },
  {
    "name": "スカイツリー",
    "id": "11",
    "location": {
      "lat": 35.71017853677952,
      "lng": 139.8112701485658
    }
  },
  {
    "name": "池袋駅",
    "id": "12",
    "location": {
      "lat": 35.73011183131977,
      "lng": 139.71236399113855
    }
  },
  {
    "name": "新宿駅",
    "id": "13",
    "location": {
      "lat": 35.68994556829432,
      "lng": 139.70064444086952
    }
  },
  {
    "name": "渋谷駅",
    "id": "14",
    "location": {
      "lat": 35.65892523183228,
      "lng": 139.7010459616736
    }
  },
  {
    "name": "恵比寿駅",
    "id": "15",
    "location": {
      "lat": 35.64653442019632,
      "lng": 139.7098645953269
    }
  },
  {
    "name": "大崎駅",
    "id": "16",
    "location": {
      "lat": 35.62029924450696,
      "lng": 139.72832453688858
    }
  },
  {
    "name": "品川駅",
    "id": "17",
    "location": {
      "lat": 35.62846374598012,
      "lng": 139.7389765912412
    }
  },
  {
    "name": "浜松町駅",
    "id": "18",
    "location": {
      "lat": 35.656277207848746,
      "lng": 139.75706793315035
    }
  },
  {
    "name": "新橋駅",
    "id": "19",
    "location": {
      "lat": 35.66638844570303,
      "lng": 139.75811919636507
    }
  },
  {
    "name": "有楽町駅",
    "id": "20",
    "location": {
      "lat": 35.6753176945677,
      "lng": 139.762957420893
    }
  },
  {
    "name": "東京駅",
    "id": "21",
    "location": {
      "lat": 35.68119994498824,
      "lng": 139.76634810310196
    }
  },
  {
    "name": "神田駅",
    "id": "22",
    "location": {
      "lat": 35.69290968219592,
      "lng": 139.77100309072102
    }
  },
  {
    "name": "秋葉原駅",
    "id": "23",
    "location": {
      "lat": 35.69855582110956,
      "lng": 139.7731059425893
    }
  },
  {
    "name": "上野駅",
    "id": "24",
    "location": {
      "lat": 35.714348687854496,
      "lng": 139.7775387962417
    }
  },
  {
    "name": "西日暮里駅",
    "id": "25",
    "location": {
      "lat": 35.73207940914929,
      "lng": 139.76668436066055
    }
  },
  {
    "name": "駒込駅",
    "id": "26",
    "location": {
      "lat": 35.737302434905544,
      "lng": 139.74694776887995
    }
  },
  {
    "name": "巣鴨駅",
    "id": "27",
    "location": {
      "lat": 35.73352364712057,
      "lng": 139.73954986026106
    }
  },
  {
    "name": "四ツ谷駅",
    "id": "28",
    "location": {
      "lat": 35.68814904120076,
      "lng": 139.73022066290886
    }
  },
  {
    "name": "御茶ノ水駅",
    "id": "29",
    "location": {
      "lat": 35.69963395820954,
      "lng": 139.76458930659393
    }
  },
  {
    "name": "川崎駅",
    "id": "30",
    "location": {
      "lat": 35.53122924593517,
      "lng": 139.69710952353324
    }
  },
  {
    "name": "吉祥寺駅",
    "id": "31",
    "location": {
      "lat": 35.70367951165739,
      "lng": 139.5806510329566
    }
  },
  {
    "name": "赤羽駅",
    "id": "32",
    "location": {
      "lat": 35.77887834539125,
      "lng": 139.72096138967623
    }
  },
  {
    "name": "亀有駅",
    "id": "33",
    "location": {
      "lat": 35.76671364986024,
      "lng": 139.8476102586416
    }
  },
  {
    "name": "本八幡駅",
    "id": "34",
    "location": {
      "lat": 35.721614614512134,
      "lng": 139.92717441794565
    }
  },
  {
    "name": "新木場駅",
    "id": "35",
    "location": {
      "lat": 35.64715645839446,
      "lng": 139.82661647878066
    }
  }
]